[
    {
    "Name": "Mitsero Village ",
    "MapLink": " https://maps.app.goo.gl/6eC3gZ3z4EzRzPUd6",
    "mapName": "Mitsero Village ",
    "latitude": 35.0416538821182,
    "longitude": 33.1281267658585,
    "imageLink": "https://lh5.googleusercontent.com/p/AF1QipMn9rXVvPnO1t902kQQ0Kz_1ygMyhVyV4pIyTdT=w426-h240-k-no",
    "rating": 4.9
  },
  {
    "Name": "Agrokipia Village ",
    "MapLink": " https://maps.app.goo.gl/N5MASZwafXgceYsf9",
    "mapName": "Agrokipia Village ",
    "latitude": 35.0445974908137,
    "longitude": 33.1553720503205,
    "imageLink": "https://lh5.googleusercontent.com/p/AF1QipPyghTy428ldSdrjHqDIi2LJD8Nw2j8m_EHC7ZF=w426-h240-k-no",
    "rating": 4.8
  },
  {
    "Name": "Moutoullas Village ",
    "MapLink": " https://maps.app.goo.gl/v37AUNU1C8zZ4ttY6",
    "mapName": "Moutoullas Village ",
    "latitude": 34.9834235959187,
    "longitude": 32.8244777980118,
    "imageLink": "https://lh5.googleusercontent.com/p/AF1QipPfD_sjAp7aEFeXAJWlQNRNWZW2xjKQNhT8_yuW=w426-h240-k-no",
    "rating": 4.6,
    "description": "A beautiful mountain village in Nicosia,well-known for it's woodcarvings and bountiful fruit. Things to do:Visit Church of Panayia Tou Moutoulla(UNESCO World Heritage Site),do the nature trail of the baths of Rigena and Chlio,you can see a waterfall on this hike.Church of Elias has a panaromic view of this village.Where to eat:Kyriakides Cafe Bar "
  },
  {
    "Name": "Foini Village ",
    "MapLink": " https://maps.app.goo.gl/5pEzzEsYDcvpwoHy5",
    "mapName": "Foini Village ",
    "latitude": 34.8938951985701,
    "longitude": 32.8366139760633,
    "imageLink": "https://lh5.googleusercontent.com/p/AF1QipMycJ70BFB10x-kkhWTXzpb6vme1TKH6Y5o3mGY=w408-h306-k-no",
    "rating": 4.5
  },
  {
    "Name": "Phini Village ",
    "MapLink": " https://maps.app.goo.gl/n4AW2TdNT7A3eSjM7",
    "mapName": "Phini Village ",
    "latitude": 34.8939792983503,
    "longitude": 32.8368394755362,
    "imageLink": "https://lh5.googleusercontent.com/p/AF1QipN1uIKrA1YXq9J9Q8_usQA5CIzh5BNJXarsiDkH=w408-h544-k-no",
    "rating": 4,
    "description": "Traditional pottery village passed down by generations, Where to eat:Phini Tavern,Ourania Delights(For Loukoumia),What to do-Hike or bike 4.5km Phini-Trooditissa Nature Trail with Chantara waterfall,a river,golden oak,variety of birds,strawberry trees,Calabrian Pine,visit Trooditissa Monastery,bell tower of the timios Stavros Church,Pilavakeio Museum of traditional church,try Pastra traditional coffee shop,pottery making workshop by Giota Aristidou(+357 99136262) "
  },
  {
    "Name": "Apokryfo Hotel ",
    "MapLink": " https://maps.app.goo.gl/XwebZJWhTdSKgWj68",
    "mapName": "Apokryfo Hotel ",
    "latitude": 34.8168991,
    "longitude": 32.876712,
    "imageLink": "https://lh3.googleusercontent.com/gps-proxy/ALd4DhEJgtFz9KMPb3VUwNCDbv3qzNNVgrf2ojTdy1cQ5PeHmVWMdFi1RZIgZeEZpgwPPW3qdFTNHldS__ThWAQ63os5XMhq8jDO5KDi5M4tVV14JemNUb8NMR8j2XKHNFCHzsnxh6cH4IsGzNsojvsMLBplPA4eh0f-MPv5xbBNPCRAesFmiDY7hlwldw=w408-h300-k-no",
    "rating": 4.6
  },
  {
    "Name": "Prodromos Village ",
    "MapLink": " https://maps.app.goo.gl/EmLgbNic57PyKzVp6",
    "mapName": "Prodromos Village ",
    "latitude": 34.9489380333758,
    "longitude": 32.8349458529413,
    "imageLink": "https://lh5.googleusercontent.com/p/AF1QipO_jlLMr7PHUU2S7qIzrCHiSgWfJEgaeqA0JYuG=w408-h725-k-no",
    "rating": 5,
    "description": "Things to do-Prodromos Reservoir and it's picnic site,(fantastic views),RESTAURANT-Byzantio Restaurant"
  },
  {
    "Name": "Lemithou Village ",
    "MapLink": " https://maps.app.goo.gl/fiWdkY5Qh2UrVAGW7",
    "mapName": "Lemithou Village ",
    "latitude": 34.9509274096121,
    "longitude": 32.8137524545368,
    "imageLink": "https://lh5.googleusercontent.com/p/AF1QipPgah4ytmZjB6NjnjqdBEXxNTkAi2ii5zcm4VhR=w493-h240-k-no",
    "rating": 4.1,
    "description": "Quiet place for hikes and biking,local wineries can be visited"
  },
  {
    "Name": "Liopetri Village ",
    "MapLink": " https://maps.app.goo.gl/4CPwbqT38k2xVXNKA",
    "mapName": "Liopetri Village ",
    "latitude": 35.0100354420791,
    "longitude": 33.8917976421352,
    "imageLink": "https://lh5.googleusercontent.com/p/AF1QipNDGfvw9uj3gzkguGvOqMeQzWjpZ0zjckf13ELc=w408-h354-k-no",
    "rating": 4.5,
    "description": "Famous for it's traditional basket weaving.Has a river which is a pitch fishing settler "
  },
  {
    "Name": "Omodos Village ",
    "MapLink": " https://maps.app.goo.gl/XwaavhZYBM2VmrR76",
    "mapName": "Omodos Village ",
    "latitude": 34.8488726647335,
    "longitude": 32.8078588498526,
    "imageLink": "https://lh5.googleusercontent.com/p/AF1QipOpVNW6brxWQ8YPPPYDCF99Df9wxFdWXLG29fl1=w408-h306-k-no",
    "rating": 4.7,
    "description": "Are all known for their wineries and vineyards "
  },
  {
    "Name": "Vassa Village ",
    "MapLink": " https://maps.app.goo.gl/3BkfFMT1VuDYCgQ77",
    "mapName": "Vassa Village ",
    "latitude": 34.8332651300902,
    "longitude": 32.792805716815,
    "imageLink": "https://lh5.googleusercontent.com/p/AF1QipPKDVvO18OjLReKoqa7R9oMO-oW3UsIPXDb5SsU=w408-h864-k-no",
    "description": "Vassa Village is a beautiful village located in the Troodos Mountains of Cyprus. It offers stunning views of the surrounding countryside and is a popular destination for hiking and nature lovers.",
    "rating": 4.5
  },
  {
    "Name": "Arsos Village ",
    "MapLink": " https://maps.app.goo.gl/oAJfU9fgHYfAPyAi6",
    "mapName": "Arsos Village ",
    "latitude": 34.8384553572343,
    "longitude": 32.7703560255055,
    "imageLink": "https://lh5.googleusercontent.com/p/AF1QipPN5gw8PydClwzJr9yxm3WnFQx5_iK2H59dAYyX=w408-h306-k-no",
    "description": "Arsos Village is a charming village located in the Troodos Mountains of Cyprus. It offers a peaceful atmosphere and traditional Cypriot architecture, making it a great place to explore the local culture and enjoy the natural beauty of the area.",
    "rating": 4.5
  },
  {
    "Name": "Lazanias Village ",
    "MapLink": " https://maps.app.goo.gl/53wxrfTVag9pijYq7",
    "mapName": "Lazanias Village ",
    "latitude": 34.9494087211308,
    "longitude": 33.174775405191,
    "imageLink": "https://lh5.googleusercontent.com/p/AF1QipNsOH0DtnNhHtwW0cA9jRdhUWV3zIGnV4SRdwDS=w493-h240-k-no",
    "description": "Lazanias Village is a charming village located in the Troodos Mountains of Cyprus. It offers a peaceful atmosphere and traditional Cypriot architecture, making it a great place to explore the local culture and enjoy the natural beauty of the area.",
    "rating": 4.8
  },
  {
    "Name": "Fikardou Village ",
    "MapLink": " https://maps.app.goo.gl/Fxx3DCNbMqnk9hHG6",
    "mapName": "Fikardou Village ",
    "latitude": 34.9587953449753,
    "longitude": 33.1723973744907,
    "imageLink": "https://lh5.googleusercontent.com/p/AF1QipMY9Pb8hBV5_kk0pxfXJN2LTTCM0AvQWQ1Vu1UZ=w408-h306-k-no",
    "description": "Known for it's Christmas markets as a Christmas village. ",
    "rating": 4.9
  },
  {
    "Name": "Limnatis Village ",
    "MapLink": " https://maps.app.goo.gl/j4UURBUwM7UZwGX66",
    "mapName": "Limnatis Village ",
    "latitude": 34.8131475360343,
    "longitude": 32.9475754744616,
    "imageLink": "https://lh5.googleusercontent.com/p/AF1QipPKjc9hOnprKXAgLSNsLrvY7jJA_GWJ7v2XbqW1=w427-h240-k-no",
    "rating": 5,
    "description": "Known for it's Almond flower blooms in Late February to early March (can be crowded) "
  },
  {
    "Name": "Lefkara Village ",
    "MapLink": " https://maps.app.goo.gl/dLD673JHHi6d5qRq7",
    "mapName": "Lefkara Village ",
    "latitude": 34.8635323960971,
    "longitude": 33.3143066921725,
    "imageLink": "https://lh5.googleusercontent.com/p/AF1QipPLRGWenpZvbwVTaRkBgbqWNU_XPxkJ5SMyspQ8=w513-h240-k-no",
    "rating": 4.8,
    "description": "Known for it's traditional embroidery of silver laces,silversmiths "
  },
  {
    "Name": "Yeroskipou Village ",
    "MapLink": " https://maps.app.goo.gl/EnjPwpiHNMZDutoU7",
    "mapName": "Yeroskipou Village ",
    "latitude": 34.7472157548497,
    "longitude": 32.4801177524941,
    "imageLink": "https://lh5.googleusercontent.com/p/AF1QipPH-VtR-5ecC58rWIi97i7tBT9jsstenqnqBxde=w408-h306-k-no",
    "rating": 4.7
  },
  {
    "Name": "Vouni Village ",
    "MapLink": " https://maps.app.goo.gl/rQxQs7X5k1boUNdx5",
    "mapName": "Vouni Village ",
    "latitude": 34.8232848,
    "longitude": 32.8343273,
    "imageLink": "https://lh5.googleusercontent.com/p/AF1QipMXskz1bET01v9RH0G-BPxu7l0p_GzmsuwiVL-5=w408-h306-k-no",
    "rating": 4.7
  },
  {
    "Name": "Kalopanayotis Village ",
    "MapLink": " https://maps.app.goo.gl/tUYKbYFucXBzjGUa9",
    "mapName": "Kalopanayotis Village ",
    "latitude": 34.9989248,
    "longitude": 32.8274917,
    "imageLink": "https://lh5.googleusercontent.com/p/AF1QipMqhi-vpwLRReyXPBUlV_-WD2ErrDpeTAIa9aYd=w507-h240-k-no",
    "rating": 4.5,
    "description": "A Charming village "
  },
  {
    "Name": "Lania Village ",
    "MapLink": " https://maps.app.goo.gl/jemgDah45wd83Wf39",
    "mapName": "Lania Village ",
    "latitude": 34.8250006,
    "longitude": 32.9216723,
    "imageLink": "https://lh5.googleusercontent.com/p/AF1QipMk-TOIhSjYAuj5H5nerPSt0I3P9JKsOJzlV3Hk=w408-h724-k-no",
    "description": "It's a beautiful mountain village, Things to do-church of Panagia Valana,Where to eat-Lania Tavern "
  }
]
